[
  {
    "api_list": [
      {
        "category_name": "Food",
        "tool_name": "openbrewery",
        "api_name": "by_city",
        "api_description": "Filter breweries by city.",
        "required_parameters": [
          {
            "name": "by_city",
            "type": "STRING",
            "description": "The name of the city to filter breweries by.",
            "default": "San Francisco"
          }
        ],
        "optional_parameters": [],
        "method": "GET",
        "template_response": {
          "breweries": [
            {
              "id": "str",
              "name": "str",
              "brewery_type": "str",
              "street": "str",
              "city": "str",
              "state": "str",
              "postal_code": "str",
              "country": "str",
              "longitude": "float",
              "latitude": "float",
              "phone": "str",
              "website_url": "str"
            }
          ]
        }
      },
      {
        "category_name": "Food",
        "tool_name": "openbrewery",
        "api_name": "by_type",
        "api_description": "Filter breweries by type.",
        "required_parameters": [
          {
            "name": "by_type",
            "type": "ENUM",
            "description": "The type of brewery to filter by.",
            "default": "micro"
          }
        ],
        "optional_parameters": [],
        "method": "GET",
        "template_response": {
          "breweries": [
            {
              "id": "str",
              "name": "str",
              "brewery_type": "str",
              "street": "str",
              "city": "str",
              "state": "str",
              "postal_code": "str",
              "country": "str",
              "longitude": "float",
              "latitude": "float",
              "phone": "str",
              "website_url": "str"
            }
          ]
        }
      }
    ],
    "query": "Show me microbreweries in San Francisco.",
    "relevant APIs": [],
    "query_id": 2
  }
]
